[
  { "id": "cra-idf", "finess": "", "nom": "CRA Île-de-France (CRAIF)", "type": "CRA", "type_code": "CRA", "adresse": "6 cour Saint-Éloi", "code_postal": "75012", "ville": "Paris", "departement": "75", "region": "Île-de-France", "telephone": "01 49 28 54 20", "lat": 48.8461, "lng": 2.3878, "source": "GNCRA" },
  { "id": "cra-ara", "finess": "", "nom": "CRA Auvergne-Rhône-Alpes (antenne Rhône)", "type": "CRA", "type_code": "CRA", "adresse": "Centre Hospitalier Le Vinatier", "code_postal": "69677", "ville": "Bron", "departement": "69", "region": "Auvergne-Rhône-Alpes", "telephone": "04 37 91 54 65", "lat": 45.7386, "lng": 4.9069, "source": "GNCRA" },
  { "id": "cra-ara-2", "finess": "", "nom": "CRA Auvergne-Rhône-Alpes (antenne Auvergne)", "type": "CRA", "type_code": "CRA", "adresse": "CHU de Clermont-Ferrand", "code_postal": "63003", "ville": "Clermont-Ferrand", "departement": "63", "region": "Auvergne-Rhône-Alpes", "telephone": "04 73 75 20 13", "lat": 45.7772, "lng": 3.0870, "source": "GNCRA" },
  { "id": "cra-bfc", "finess": "", "nom": "CRA Bourgogne-Franche-Comté", "type": "CRA", "type_code": "CRA", "adresse": "CHU de Dijon", "code_postal": "21000", "ville": "Dijon", "departement": "21", "region": "Bourgogne-Franche-Comté", "telephone": "03 80 29 51 04", "lat": 47.3167, "lng": 5.0167, "source": "GNCRA" },
  { "id": "cra-bretagne", "finess": "", "nom": "CRA Bretagne", "type": "CRA", "type_code": "CRA", "adresse": "CHGR - 108 avenue du Général Leclerc", "code_postal": "35703", "ville": "Rennes", "departement": "35", "region": "Bretagne", "telephone": "02 99 51 55 78", "lat": 48.1173, "lng": -1.6778, "source": "GNCRA" },
  { "id": "cra-cvl", "finess": "", "nom": "CRA Centre-Val de Loire", "type": "CRA", "type_code": "CRA", "adresse": "CHRU de Tours", "code_postal": "37044", "ville": "Tours", "departement": "37", "region": "Centre-Val de Loire", "telephone": "02 47 47 86 36", "lat": 47.3941, "lng": 0.6848, "source": "GNCRA" },
  { "id": "cra-corse", "finess": "", "nom": "CRA de Corse", "type": "CRA", "type_code": "CRA", "adresse": "Hôpital de Castelluccio", "code_postal": "20177", "ville": "Ajaccio", "departement": "2A", "region": "Corse", "telephone": "04 95 29 79 30", "lat": 41.9192, "lng": 8.7386, "source": "GNCRA" },
  { "id": "cra-ge", "finess": "", "nom": "CRA Grand Est (antenne Alsace)", "type": "CRA", "type_code": "CRA", "adresse": "Hôpitaux Universitaires de Strasbourg", "code_postal": "67091", "ville": "Strasbourg", "departement": "67", "region": "Grand Est", "telephone": "03 88 11 59 84", "lat": 48.5734, "lng": 7.7521, "source": "GNCRA" },
  { "id": "cra-ge-2", "finess": "", "nom": "CRA Grand Est (antenne Lorraine)", "type": "CRA", "type_code": "CRA", "adresse": "Centre Psychothérapique de Nancy", "code_postal": "54520", "ville": "Laxou", "departement": "54", "region": "Grand Est", "telephone": "03 83 92 56 30", "lat": 48.6883, "lng": 6.1479, "source": "GNCRA" },
  { "id": "cra-ge-3", "finess": "", "nom": "CRA Grand Est (antenne Champagne-Ardenne)", "type": "CRA", "type_code": "CRA", "adresse": "CHU de Reims", "code_postal": "51092", "ville": "Reims", "departement": "51", "region": "Grand Est", "telephone": "03 26 78 89 70", "lat": 49.2583, "lng": 3.9833, "source": "GNCRA" },
  { "id": "cra-hdf", "finess": "", "nom": "CRA Hauts-de-France", "type": "CRA", "type_code": "CRA", "adresse": "Parc Eurasanté - 150 rue du Dr Yersin", "code_postal": "59120", "ville": "Loos", "departement": "59", "region": "Hauts-de-France", "telephone": "03 20 60 62 59", "lat": 50.6100, "lng": 3.0167, "source": "GNCRA" },
  { "id": "cra-normandie", "finess": "", "nom": "CRA Normandie", "type": "CRA", "type_code": "CRA", "adresse": "CHU de Rouen", "code_postal": "76031", "ville": "Rouen", "departement": "76", "region": "Normandie", "telephone": "02 32 95 18 64", "lat": 49.4431, "lng": 1.0993, "source": "GNCRA" },
  { "id": "cra-na", "finess": "", "nom": "CRA Nouvelle-Aquitaine (antenne Aquitaine)", "type": "CRA", "type_code": "CRA", "adresse": "CH Charles Perrens", "code_postal": "33076", "ville": "Bordeaux", "departement": "33", "region": "Nouvelle-Aquitaine", "telephone": "05 56 56 67 19", "lat": 44.8378, "lng": -0.5792, "source": "GNCRA" },
  { "id": "cra-na-2", "finess": "", "nom": "CRA Nouvelle-Aquitaine (antenne Limousin)", "type": "CRA", "type_code": "CRA", "adresse": "CH Esquirol", "code_postal": "87025", "ville": "Limoges", "departement": "87", "region": "Nouvelle-Aquitaine", "telephone": "05 55 43 12 64", "lat": 45.8336, "lng": 1.2611, "source": "GNCRA" },
  { "id": "cra-na-3", "finess": "", "nom": "CRA Nouvelle-Aquitaine (antenne Poitou-Charentes)", "type": "CRA", "type_code": "CRA", "adresse": "CH Henri Laborit", "code_postal": "86021", "ville": "Poitiers", "departement": "86", "region": "Nouvelle-Aquitaine", "telephone": "05 49 44 57 59", "lat": 46.5802, "lng": 0.3404, "source": "GNCRA" },
  { "id": "cra-occitanie-mp", "finess": "", "nom": "CRA Occitanie (antenne Midi-Pyrénées)", "type": "CRA", "type_code": "CRA", "adresse": "CHU de Toulouse", "code_postal": "31059", "ville": "Toulouse", "departement": "31", "region": "Occitanie", "telephone": "05 61 55 60 95", "lat": 43.6047, "lng": 1.4442, "source": "GNCRA" },
  { "id": "cra-occitanie-lr", "finess": "", "nom": "CRA Occitanie (antenne Languedoc-Roussillon)", "type": "CRA", "type_code": "CRA", "adresse": "CHU de Montpellier", "code_postal": "34295", "ville": "Montpellier", "departement": "34", "region": "Occitanie", "telephone": "04 67 33 99 94", "lat": 43.6108, "lng": 3.8767, "source": "GNCRA" },
  { "id": "cra-pdl", "finess": "", "nom": "CRA Pays de la Loire", "type": "CRA", "type_code": "CRA", "adresse": "CHU de Nantes", "code_postal": "44093", "ville": "Nantes", "departement": "44", "region": "Pays de la Loire", "telephone": "02 40 94 35 10", "lat": 47.2184, "lng": -1.5536, "source": "GNCRA" },
  { "id": "cra-paca", "finess": "", "nom": "CRA PACA", "type": "CRA", "type_code": "CRA", "adresse": "Hôpital Sainte-Marguerite", "code_postal": "13274", "ville": "Marseille", "departement": "13", "region": "Provence-Alpes-Côte d'Azur", "telephone": "04 91 74 49 91", "lat": 43.2833, "lng": 5.4000, "source": "GNCRA" },
  { "id": "cra-guadeloupe", "finess": "", "nom": "CRA Guadeloupe", "type": "CRA", "type_code": "CRA", "adresse": "CHU de Pointe-à-Pitre", "code_postal": "97159", "ville": "Pointe-à-Pitre", "departement": "971", "region": "Guadeloupe", "telephone": "05 90 89 10 10", "lat": 16.2411, "lng": -61.5331, "source": "GNCRA" },
  { "id": "cra-guyane", "finess": "", "nom": "CRA Guyane", "type": "CRA", "type_code": "CRA", "adresse": "CH Andrée Rosemon", "code_postal": "97306", "ville": "Cayenne", "departement": "973", "region": "Guyane", "telephone": "05 94 39 50 50", "lat": 4.9333, "lng": -52.3333, "source": "GNCRA" },
  { "id": "cra-martinique", "finess": "", "nom": "CRA Martinique", "type": "CRA", "type_code": "CRA", "adresse": "CHU de Martinique", "code_postal": "97261", "ville": "Fort-de-France", "departement": "972", "region": "Martinique", "telephone": "05 96 55 20 00", "lat": 14.6167, "lng": -61.0667, "source": "GNCRA" },
  { "id": "cra-reunion", "finess": "", "nom": "CRA La Réunion", "type": "CRA", "type_code": "CRA", "adresse": "EPSMR - 1 chemin Pignolet", "code_postal": "97408", "ville": "Saint-Denis", "departement": "974", "region": "La Réunion", "telephone": "02 62 20 93 60", "lat": -20.8789, "lng": 55.4481, "source": "GNCRA" },
  { "id": "cra-mayotte", "finess": "", "nom": "CRA Mayotte", "type": "CRA", "type_code": "CRA", "adresse": "CHM de Mamoudzou", "code_postal": "97600", "ville": "Mamoudzou", "departement": "976", "region": "Mayotte", "telephone": "02 69 61 80 00", "lat": -12.7871, "lng": 45.2750, "source": "GNCRA" },
  { "id": "maison-autisme", "finess": "", "nom": "Maison de l'Autisme", "type": "CRA", "type_code": "MAISON", "adresse": "10 rue Waldeck Rochet", "code_postal": "93300", "ville": "Aubervilliers", "departement": "93", "region": "Île-de-France", "telephone": "0 800 71 40 40", "lat": 48.9122, "lng": 2.3831, "source": "GNCRA" }
]
